Lat,Lon,Title,Link,Condition,Impact
34.307143856288,66.181640625,War in Afghanistan,https://www.cfr.org/global-conflict-tracker/conflict/war-afghanistan,3,1
35.317366329238,38.49609375,Civil War in Syria,https://www.cfr.org/global-conflict-tracker/conflict/civil-war-syria,2,2
12.811801316583,112.67578125,Territorial Disputes in the South China Sea,https://www.cfr.org/global-conflict-tracker/conflict/territorial-disputes-south-china-sea,2,1
25.800133,123.595626,Tensions in the East China Sea,https://www.cfr.org/global-conflict-tracker/conflict/tensions-east-china-sea,2,1
39.038212,125.756281,North Korea Crisis,https://www.cfr.org/global-conflict-tracker/conflict/north-korea-crisis,2,1
33.284619968888,42.1875,Political Instability in Iraq,https://www.cfr.org/global-conflict-tracker/conflict/political-instability-iraq,2,2
30.448673679288,70.13671875,Islamist Militancy in Pakistan,https://www.cfr.org/global-conflict-tracker/conflict/islamist-militancy-pakistan,2,2
34.23451236237,36.045112609863,Political Instability in Lebanon,https://www.cfr.org/global-conflict-tracker/conflict/political-instability-lebanon,3,2
27.449790329784,31.201171875,Instability in Egypt,https://www.cfr.org/global-conflict-tracker/conflict/instability-egypt,2,2
49.410973199696,30.673828125,Conflict in Ukraine,https://www.cfr.org/global-conflict-tracker/conflict/conflict-ukraine,2,2
39.6018419,34.5562563,Conflict Between Turkey and Armed Kurdish Groups,https://www.cfr.org/global-conflict-tracker/conflict/conflict-between-turkey-and-armed-kurdish-groups,2,2
23.885837699862,-102.3046875,Criminal Violence in Mexico,https://www.cfr.org/global-conflict-tracker/conflict/criminal-violence-mexico,2,2
31.674212,34.795588,Israeli-Palestinian Conflict,https://www.cfr.org/global-conflict-tracker/conflict/israeli-palestinian-conflict,2,2
10.833305983642,8.0859375,Boko Haram in Nigeria,https://www.cfr.org/global-conflict-tracker/conflict/boko-haram-nigeria,2,2
29.190533,17.27051,Civil War in Libya,https://www.cfr.org/global-conflict-tracker/conflict/civil-war-libya,2,3
32.768800484882,74.70703125,Conflict Between India and Pakistan,https://www.cfr.org/global-conflict-tracker/conflict/conflict-between-india-and-pakistan,2,2
15.961329081597,46.40625,War in Yemen,https://www.cfr.org/global-conflict-tracker/conflict/war-yemen,3,3
39.8153,46.7519,Nagorno-Karabakh Conflict,https://www.cfr.org/global-conflict-tracker/conflict/nagorno-karabakh-conflict,2,3
17.978733095556,-2.4609375,Destabilization of Mali,https://www.cfr.org/global-conflict-tracker/conflict/destabilization-mali,2,3
6.8391696263428,19.3359375,Violence in the Central African Republic,https://www.cfr.org/global-conflict-tracker/conflict/violence-central-african-republic,2,3
26.688647,56.502372,Confrontation Between the United States and Iran,https://www.cfr.org/global-conflict-tracker/conflict/confrontation-between-united-states-and-iran,2,1
10.480594,-66.903603,Instability in Venezuela ,https://www.cfr.org/global-conflict-tracker/conflict/instability-venezuela,2,2
-1.9332268264771,22.641792297363,Violence in the Democratic Republic of Congo,https://www.cfr.org/global-conflict-tracker/conflict/violence-democratic-republic-congo,2,3
21.77990534253,96.328125,Rohingya Crisis in Myanmar,https://www.cfr.org/global-conflict-tracker/conflict/rohingya-crisis-myanmar,3,3
4.85165,31.58247,Civil War in South Sudan,https://www.cfr.org/global-conflict-tracker/conflict/civil-war-south-sudan,2,3
5.9657536710655,47.98828125,Al-Shabab in Somalia,https://www.cfr.org/global-conflict-tracker/conflict/al-shabab-somalia,2,3
8.980603,38.757761,Conflict in Ethiopia,https://www.cfr.org/global-conflict-tracker/conflict/conflict-ethiopia,3,3
18.9,-56.2,Hurricane/Typhoon (74 mph),https://www.gdacs.org/report.aspx?eventtype=TC&eventid=1000833,3,3
38.8721,135.4642,earthquake occurred in Japan (6.1M),https://www.gdacs.org/report.aspx?eventtype=EQ&eventid=1287722,3,3
-33.1658,-68.1304,earthquake occurred in Argentina (5.3M),https://www.gdacs.org/report.aspx?eventtype=EQ&eventid=1287716,3,3
-17.025,-56.602,Drought alert level is Orange.,https://www.gdacs.org/report.aspx?eventtype=DR&eventid=1013868,2,2
-18.3283,-177.8163,earthquake occurred in Fiji (4.8M),https://www.gdacs.org/report.aspx?eventtype=EQ&eventid=1287713,3,3
24.2,135.4,Hurricane/Typhoon (74 mph),https://www.gdacs.org/report.aspx?eventtype=TC&eventid=1000831,3,3
-59.112,-25.6267,earthquake occurred in South Georgia and the South Sandwich Islands (5.1M),https://www.gdacs.org/report.aspx?eventtype=EQ&eventid=1287700,3,3
56.3648,117.5404,earthquake occurred in Russian Federation (4.9M),https://www.gdacs.org/report.aspx?eventtype=EQ&eventid=1287690,3,3
-21.5729,170.5708,earthquake occurred in Vanuatu (4.6M),https://www.gdacs.org/report.aspx?eventtype=EQ&eventid=1287684,3,3
-15.8555,166.4728,earthquake occurred in Vanuatu (5.2M),https://www.gdacs.org/report.aspx?eventtype=EQ&eventid=1287668,3,3
8.248,30.501,Drought alert level is Green.,https://www.gdacs.org/report.aspx?eventtype=DR&eventid=1015040,3,3
-4.936,22.509,Drought alert level is Green.,https://www.gdacs.org/report.aspx?eventtype=DR&eventid=1015039,3,3
28.57,-17.83,Volcano La Palma is emitting ash clouds ,https://www.gdacs.org/report.aspx?eventtype=VO&eventid=1000031,2,2
-36.124,-71.068,Drought alert level is Green.,https://www.gdacs.org/report.aspx?eventtype=DR&eventid=1014958,3,3
44.5,18.5,Drought alert level is Green.,https://www.gdacs.org/report.aspx?eventtype=DR&eventid=1014614,3,3
-6.166,-50.079,Drought alert level is Green.,https://www.gdacs.org/report.aspx?eventtype=DR&eventid=1014268,3,3
26.67,94.312,Drought alert level is Green.,https://www.gdacs.org/report.aspx?eventtype=DR&eventid=1014718,3,3
6.272,8.73,Drought alert level is Green.,https://www.gdacs.org/report.aspx?eventtype=DR&eventid=1014509,3,3
40.5,-122.5,Drought alert level is Green.,https://www.gdacs.org/report.aspx?eventtype=DR&eventid=1014821,3,3
-1.035,40.423,Drought alert level is Orange.,https://www.gdacs.org/report.aspx?eventtype=DR&eventid=1014742,2,2
48.993,-104.366,Drought alert level is Green.,https://www.gdacs.org/report.aspx?eventtype=DR&eventid=1014320,3,3
51.932,57.762,Drought alert level is Orange.,https://www.gdacs.org/report.aspx?eventtype=DR&eventid=1014473,2,2
-13.599,12.777,Drought alert level is Orange.,https://www.gdacs.org/report.aspx?eventtype=DR&eventid=1014416,2,2
-18.506,48.505,Drought alert level is Red.,https://www.gdacs.org/report.aspx?eventtype=DR&eventid=1014495,1,1
38.647,43.369,Drought alert level is Orange.,https://www.gdacs.org/report.aspx?eventtype=DR&eventid=1014392,2,2
-59.7008,-26.2701,earthquake occurred in South Georgia and the South Sandwich Islands (4.6M),https://www.gdacs.org/report.aspx?eventtype=EQ&eventid=1287657,3,3
-22.4306,179.5925,earthquake occurred in Fiji (4.8M),https://www.gdacs.org/report.aspx?eventtype=EQ&eventid=1287637,3,3
-24.6204,-178.865,earthquake occurred in South Of Fiji Islands (4.9M),https://www.gdacs.org/report.aspx?eventtype=EQ&eventid=1287629,3,3
10.4573,139.0239,earthquake occurred in (5.2M),https://www.gdacs.org/report.aspx?eventtype=EQ&eventid=1287623,3,3
35.2721,25.3055,earthquake occurred in Greece (4.7M),https://www.gdacs.org/report.aspx?eventtype=EQ&eventid=1287613,3,3
