Lat,Lon,Title,Link,Condition,Impact
34.307143856288,66.181640625,War in Afghanistan,https://www.cfr.org/global-conflict-tracker/conflict/war-afghanistan,3,1
35.317366329238,38.49609375,Civil War in Syria,https://www.cfr.org/global-conflict-tracker/conflict/civil-war-syria,2,2
12.811801316583,112.67578125,Territorial Disputes in the South China Sea,https://www.cfr.org/global-conflict-tracker/conflict/territorial-disputes-south-china-sea,2,1
25.800133,123.595626,Tensions in the East China Sea,https://www.cfr.org/global-conflict-tracker/conflict/tensions-east-china-sea,2,1
39.038212,125.756281,North Korea Crisis,https://www.cfr.org/global-conflict-tracker/conflict/north-korea-crisis,2,1
33.284619968888,42.1875,Political Instability in Iraq,https://www.cfr.org/global-conflict-tracker/conflict/political-instability-iraq,2,2
30.448673679288,70.13671875,Islamist Militancy in Pakistan,https://www.cfr.org/global-conflict-tracker/conflict/islamist-militancy-pakistan,2,2
34.23451236237,36.045112609863,Political Instability in Lebanon,https://www.cfr.org/global-conflict-tracker/conflict/political-instability-lebanon,3,2
27.449790329784,31.201171875,Instability in Egypt,https://www.cfr.org/global-conflict-tracker/conflict/instability-egypt,2,2
49.410973199696,30.673828125,Conflict in Ukraine,https://www.cfr.org/global-conflict-tracker/conflict/conflict-ukraine,3,2
39.6018419,34.5562563,Conflict Between Turkey and Armed Kurdish Groups,https://www.cfr.org/global-conflict-tracker/conflict/conflict-between-turkey-and-armed-kurdish-groups,2,2
23.885837699862,-102.3046875,Criminal Violence in Mexico,https://www.cfr.org/global-conflict-tracker/conflict/criminal-violence-mexico,2,2
31.674212,34.795588,Israeli-Palestinian Conflict,https://www.cfr.org/global-conflict-tracker/conflict/israeli-palestinian-conflict,2,2
10.833305983642,8.0859375,Boko Haram in Nigeria,https://www.cfr.org/global-conflict-tracker/conflict/boko-haram-nigeria,2,2
29.190533,17.27051,Civil War in Libya,https://www.cfr.org/global-conflict-tracker/conflict/civil-war-libya,2,3
32.768800484882,74.70703125,Conflict Between India and Pakistan,https://www.cfr.org/global-conflict-tracker/conflict/conflict-between-india-and-pakistan,2,2
15.961329081597,46.40625,War in Yemen,https://www.cfr.org/global-conflict-tracker/conflict/war-yemen,3,3
39.8153,46.7519,Nagorno-Karabakh Conflict,https://www.cfr.org/global-conflict-tracker/conflict/nagorno-karabakh-conflict,2,3
17.978733095556,-2.4609375,Destabilization of Mali,https://www.cfr.org/global-conflict-tracker/conflict/destabilization-mali,2,3
6.8391696263428,19.3359375,Violence in the Central African Republic,https://www.cfr.org/global-conflict-tracker/conflict/violence-central-african-republic,2,3
26.688647,56.502372,Confrontation Between the United States and Iran,https://www.cfr.org/global-conflict-tracker/conflict/confrontation-between-united-states-and-iran,2,1
10.480594,-66.903603,Instability in Venezuela ,https://www.cfr.org/global-conflict-tracker/conflict/instability-venezuela,2,2
-1.9332268264771,22.641792297363,Violence in the Democratic Republic of Congo,https://www.cfr.org/global-conflict-tracker/conflict/violence-democratic-republic-congo,2,3
21.77990534253,96.328125,Rohingya Crisis in Myanmar,https://www.cfr.org/global-conflict-tracker/conflict/rohingya-crisis-myanmar,3,3
4.85165,31.58247,Civil War in South Sudan,https://www.cfr.org/global-conflict-tracker/conflict/civil-war-south-sudan,2,3
5.9657536710655,47.98828125,Al-Shabab in Somalia,https://www.cfr.org/global-conflict-tracker/conflict/al-shabab-somalia,2,3
8.980603,38.757761,Conflict in Ethiopia,https://www.cfr.org/global-conflict-tracker/conflict/conflict-ethiopia,3,3
16.7851,-61.3271,earthquake occurred in Guadeloupe (5.2M),https://www.gdacs.org/report.aspx?eventtype=EQ&eventid=1310163,3,3
-16.9,50.4,Tropical Storm( 93 km/h),https://www.gdacs.org/report.aspx?eventtype=TC&eventid=1000865,3,3
14.4323,-93.0159,earthquake occurred in Mexico (4.6M),https://www.gdacs.org/report.aspx?eventtype=EQ&eventid=1310151,3,3
51.3359,93.0769,earthquake occurred in Russian Federation (4.9M),https://www.gdacs.org/report.aspx?eventtype=EQ&eventid=1310152,3,3
18.2283,145.6966,earthquake occurred in Northern Mariana Islands (4.5M),https://www.gdacs.org/report.aspx?eventtype=EQ&eventid=1310146,3,3
19.134,-70.769,Drought alert level is Green.,https://www.gdacs.org/report.aspx?eventtype=DR&eventid=1015291,3,3
-18.132,12.867,Drought alert level is Green.,https://www.gdacs.org/report.aspx?eventtype=DR&eventid=1015356,3,3
38.8,-7.2,Drought alert level is Orange.,https://www.gdacs.org/report.aspx?eventtype=DR&eventid=1015249,2,2
32.9,-100.303,Drought alert level is Green.,https://www.gdacs.org/report.aspx?eventtype=DR&eventid=1015088,3,3
-9.754,32.848,Drought alert level is Orange.,https://www.gdacs.org/report.aspx?eventtype=DR&eventid=1015281,2,2
35.093,41.313,Drought alert level is Green.,https://www.gdacs.org/report.aspx?eventtype=DR&eventid=1015257,3,3
16.01,-87.57,Drought alert level is Green.,https://www.gdacs.org/report.aspx?eventtype=DR&eventid=1015187,3,3
-38.509,-72.689,Drought alert level is Green.,https://www.gdacs.org/report.aspx?eventtype=DR&eventid=1014958,3,3
5.249,39.249,Drought alert level is Orange.,https://www.gdacs.org/report.aspx?eventtype=DR&eventid=1014742,2,2
44.426,54.55,Drought alert level is Green.,https://www.gdacs.org/report.aspx?eventtype=DR&eventid=1014473,3,3
-21.747,44.892,Drought alert level is Red.,https://www.gdacs.org/report.aspx?eventtype=DR&eventid=1014495,1,1
-26.739,-55.914,Drought alert level is Orange.,https://www.gdacs.org/report.aspx?eventtype=DR&eventid=1013868,2,2
33.372,-4.146,Drought alert level is Orange.,https://www.gdacs.org/report.aspx?eventtype=DR&eventid=1014695,2,2
-8.4899,134.8071,earthquake occurred in Indonesia (4.9M),https://www.gdacs.org/report.aspx?eventtype=EQ&eventid=1310129,3,3
70.8194,-14.1573,earthquake occurred in Svalbard and Jan Mayen (4.7M),https://www.gdacs.org/report.aspx?eventtype=EQ&eventid=1310114,3,3
70.7324,-14.3623,earthquake occurred in Svalbard and Jan Mayen (5.7M),https://www.gdacs.org/report.aspx?eventtype=EQ&eventid=1310106,3,3
28.8351,130.1683,earthquake occurred in Japan (4.7M),https://www.gdacs.org/report.aspx?eventtype=EQ&eventid=1310103,3,3
3.3965,-83.001,earthquake occurred in Ecuador (4.6M),https://www.gdacs.org/report.aspx?eventtype=EQ&eventid=1310093,3,3
42.3519,80.3231,earthquake occurred in China (4.5M),https://www.gdacs.org/report.aspx?eventtype=EQ&eventid=1310086,3,3
35.8949,140.5484,earthquake occurred in Japan (4.5M),https://www.gdacs.org/report.aspx?eventtype=EQ&eventid=1310059,3,3
