Lat,Lon,Title,Link,Condition,Impact
34.307143856288,66.181640625,War in Afghanistan,https://www.cfr.org/global-conflict-tracker/conflict/war-afghanistan,3,1
35.317366329238,38.49609375,Civil War in Syria,https://www.cfr.org/global-conflict-tracker/conflict/civil-war-syria,2,2
12.811801316583,112.67578125,Territorial Disputes in the South China Sea,https://www.cfr.org/global-conflict-tracker/conflict/territorial-disputes-south-china-sea,2,1
25.800133,123.595626,Tensions in the East China Sea,https://www.cfr.org/global-conflict-tracker/conflict/tensions-east-china-sea,2,1
39.038212,125.756281,North Korea Crisis,https://www.cfr.org/global-conflict-tracker/conflict/north-korea-crisis,2,1
33.284619968888,42.1875,Political Instability in Iraq,https://www.cfr.org/global-conflict-tracker/conflict/political-instability-iraq,2,2
30.448673679288,70.13671875,Islamist Militancy in Pakistan,https://www.cfr.org/global-conflict-tracker/conflict/islamist-militancy-pakistan,2,2
34.23451236237,36.045112609863,Political Instability in Lebanon,https://www.cfr.org/global-conflict-tracker/conflict/political-instability-lebanon,3,2
27.449790329784,31.201171875,Instability in Egypt,https://www.cfr.org/global-conflict-tracker/conflict/instability-egypt,2,2
49.410973199696,30.673828125,Conflict in Ukraine,https://www.cfr.org/global-conflict-tracker/conflict/conflict-ukraine,2,2
39.6018419,34.5562563,Conflict Between Turkey and Armed Kurdish Groups,https://www.cfr.org/global-conflict-tracker/conflict/conflict-between-turkey-and-armed-kurdish-groups,2,2
23.885837699862,-102.3046875,Criminal Violence in Mexico,https://www.cfr.org/global-conflict-tracker/conflict/criminal-violence-mexico,2,2
31.674212,34.795588,Israeli-Palestinian Conflict,https://www.cfr.org/global-conflict-tracker/conflict/israeli-palestinian-conflict,2,2
10.833305983642,8.0859375,Boko Haram in Nigeria,https://www.cfr.org/global-conflict-tracker/conflict/boko-haram-nigeria,2,2
29.190533,17.27051,Civil War in Libya,https://www.cfr.org/global-conflict-tracker/conflict/civil-war-libya,2,3
32.768800484882,74.70703125,Conflict Between India and Pakistan,https://www.cfr.org/global-conflict-tracker/conflict/conflict-between-india-and-pakistan,2,2
15.961329081597,46.40625,War in Yemen,https://www.cfr.org/global-conflict-tracker/conflict/war-yemen,3,3
39.8153,46.7519,Nagorno-Karabakh Conflict,https://www.cfr.org/global-conflict-tracker/conflict/nagorno-karabakh-conflict,2,3
17.978733095556,-2.4609375,Destabilization of Mali,https://www.cfr.org/global-conflict-tracker/conflict/destabilization-mali,2,3
6.8391696263428,19.3359375,Violence in the Central African Republic,https://www.cfr.org/global-conflict-tracker/conflict/violence-central-african-republic,2,3
26.688647,56.502372,Confrontation Between the United States and Iran,https://www.cfr.org/global-conflict-tracker/conflict/confrontation-between-united-states-and-iran,2,1
10.480594,-66.903603,Instability in Venezuela ,https://www.cfr.org/global-conflict-tracker/conflict/instability-venezuela,2,2
-1.9332268264771,22.641792297363,Violence in the Democratic Republic of Congo,https://www.cfr.org/global-conflict-tracker/conflict/violence-democratic-republic-congo,2,3
21.77990534253,96.328125,Rohingya Crisis in Myanmar,https://www.cfr.org/global-conflict-tracker/conflict/rohingya-crisis-myanmar,3,3
4.85165,31.58247,Civil War in South Sudan,https://www.cfr.org/global-conflict-tracker/conflict/civil-war-south-sudan,2,3
5.9657536710655,47.98828125,Al-Shabab in Somalia,https://www.cfr.org/global-conflict-tracker/conflict/al-shabab-somalia,2,3
8.980603,38.757761,Conflict in Ethiopia,https://www.cfr.org/global-conflict-tracker/conflict/conflict-ethiopia,3,3
24.0251,122.4574,earthquake occurred in China (5.2M),https://www.gdacs.org/report.aspx?eventtype=EQ&eventid=1298306,3,3
29.9057,-113.7897,earthquake occurred in Mexico (4.6M),https://www.gdacs.org/report.aspx?eventtype=EQ&eventid=1298305,3,3
26.895,106.712,earthquake occurred in China (5M),https://www.gdacs.org/report.aspx?eventtype=EQ&eventid=1298300,3,3
39.3903,142.0686,earthquake occurred in Japan (4.9M),https://www.gdacs.org/report.aspx?eventtype=EQ&eventid=1298292,3,3
-14.2,106.4,Tropical Storm( 74 km/h),https://www.gdacs.org/report.aspx?eventtype=TC&eventid=1000848,3,3
-16.9403,175.2363,earthquake occurred in Fiji (5.6M),https://www.gdacs.org/report.aspx?eventtype=EQ&eventid=1298283,3,3
36.7338,141.2984,earthquake occurred in Japan (4.6M),https://www.gdacs.org/report.aspx?eventtype=EQ&eventid=1298285,3,3
29.8971,-113.7879,earthquake occurred in Mexico (4.9M),https://www.gdacs.org/report.aspx?eventtype=EQ&eventid=1298275,3,3
-16.6458,175.1156,earthquake occurred in Fiji (5.4M),https://www.gdacs.org/report.aspx?eventtype=EQ&eventid=1298273,3,3
-16.6816,175.1156,earthquake occurred in Fiji (5.2M),https://www.gdacs.org/report.aspx?eventtype=EQ&eventid=1298272,3,3
7.1814,93.9671,earthquake occurred in India (4.6M),https://www.gdacs.org/report.aspx?eventtype=EQ&eventid=1298261,3,3
-9.752,19.752,Drought alert level is Orange.,https://www.gdacs.org/report.aspx?eventtype=DR&eventid=1015039,2,2
-36.427,-71.63,Drought alert level is Green.,https://www.gdacs.org/report.aspx?eventtype=DR&eventid=1014958,3,3
43.938,11.459,Drought alert level is Green.,https://www.gdacs.org/report.aspx?eventtype=DR&eventid=1014614,3,3
26.603,95.096,Drought alert level is Green.,https://www.gdacs.org/report.aspx?eventtype=DR&eventid=1014718,3,3
9.999,7.626,Drought alert level is Green.,https://www.gdacs.org/report.aspx?eventtype=DR&eventid=1014509,3,3
40.5,-122.5,Drought alert level is Green.,https://www.gdacs.org/report.aspx?eventtype=DR&eventid=1014821,3,3
-1.755,39.704,Drought alert level is Orange.,https://www.gdacs.org/report.aspx?eventtype=DR&eventid=1014742,2,2
51.423,-110.326,Drought alert level is Green.,https://www.gdacs.org/report.aspx?eventtype=DR&eventid=1014320,3,3
50.769,57.584,Drought alert level is Orange.,https://www.gdacs.org/report.aspx?eventtype=DR&eventid=1014473,2,2
-13.599,12.777,Drought alert level is Orange.,https://www.gdacs.org/report.aspx?eventtype=DR&eventid=1014416,2,2
-18.506,48.505,Drought alert level is Red.,https://www.gdacs.org/report.aspx?eventtype=DR&eventid=1014495,1,1
-13.541,-60.942,Drought alert level is Orange.,https://www.gdacs.org/report.aspx?eventtype=DR&eventid=1013868,2,2
35.101,8.099,Drought alert level is Green.,https://www.gdacs.org/report.aspx?eventtype=DR&eventid=1014695,3,3
-6.1818,153.9184,"earthquake occurred in New Britain Region, (4.5M)",https://www.gdacs.org/report.aspx?eventtype=EQ&eventid=1298238,3,3
28.2355,59.27,earthquake occurred in Islamic Republic of Iran (5M),https://www.gdacs.org/report.aspx?eventtype=EQ&eventid=1298227,3,3
-33.9918,55.8206,earthquake occurred in Southwest Indian Ridge (5.3M),https://www.gdacs.org/report.aspx?eventtype=EQ&eventid=1298225,3,3
-0.1488,123.9416,earthquake occurred in Indonesia (4.7M),https://www.gdacs.org/report.aspx?eventtype=EQ&eventid=1298220,3,3
49.1551,153.939,earthquake occurred in Russian Federation (4.6M),https://www.gdacs.org/report.aspx?eventtype=EQ&eventid=1298221,3,3
-49.1632,126.1689,earthquake occurred in Western Indian-Antarctic Ridge (4.6M),https://www.gdacs.org/report.aspx?eventtype=EQ&eventid=1298215,3,3
52.3676,157.2575,earthquake occurred in Russian Federation (4.8M),https://www.gdacs.org/report.aspx?eventtype=EQ&eventid=1298199,3,3
-0.1759,-78.3803,earthquake occurred in Ecuador (4.9M),https://www.gdacs.org/report.aspx?eventtype=EQ&eventid=1298195,3,3
