Lat,Lon,Title,Link,Condition,Impact
34.307143856288,66.181640625,War in Afghanistan,https://www.cfr.org/global-conflict-tracker/conflict/war-afghanistan,3,1
35.317366329238,38.49609375,Civil War in Syria,https://www.cfr.org/global-conflict-tracker/conflict/civil-war-syria,2,2
12.811801316583,112.67578125,Territorial Disputes in the South China Sea,https://www.cfr.org/global-conflict-tracker/conflict/territorial-disputes-south-china-sea,2,1
25.800133,123.595626,Tensions in the East China Sea,https://www.cfr.org/global-conflict-tracker/conflict/tensions-east-china-sea,2,1
39.038212,125.756281,North Korea Crisis,https://www.cfr.org/global-conflict-tracker/conflict/north-korea-crisis,2,1
33.284619968888,42.1875,Political Instability in Iraq,https://www.cfr.org/global-conflict-tracker/conflict/political-instability-iraq,2,2
30.448673679288,70.13671875,Islamist Militancy in Pakistan,https://www.cfr.org/global-conflict-tracker/conflict/islamist-militancy-pakistan,2,2
34.23451236237,36.045112609863,Political Instability in Lebanon,https://www.cfr.org/global-conflict-tracker/conflict/political-instability-lebanon,3,2
27.449790329784,31.201171875,Instability in Egypt,https://www.cfr.org/global-conflict-tracker/conflict/instability-egypt,2,2
49.410973199696,30.673828125,Conflict in Ukraine,https://www.cfr.org/global-conflict-tracker/conflict/conflict-ukraine,3,2
39.6018419,34.5562563,Conflict Between Turkey and Armed Kurdish Groups,https://www.cfr.org/global-conflict-tracker/conflict/conflict-between-turkey-and-armed-kurdish-groups,2,2
23.885837699862,-102.3046875,Criminal Violence in Mexico,https://www.cfr.org/global-conflict-tracker/conflict/criminal-violence-mexico,2,2
31.674212,34.795588,Israeli-Palestinian Conflict,https://www.cfr.org/global-conflict-tracker/conflict/israeli-palestinian-conflict,2,2
10.833305983642,8.0859375,Boko Haram in Nigeria,https://www.cfr.org/global-conflict-tracker/conflict/boko-haram-nigeria,2,2
29.190533,17.27051,Civil War in Libya,https://www.cfr.org/global-conflict-tracker/conflict/civil-war-libya,2,3
32.768800484882,74.70703125,Conflict Between India and Pakistan,https://www.cfr.org/global-conflict-tracker/conflict/conflict-between-india-and-pakistan,2,2
15.961329081597,46.40625,War in Yemen,https://www.cfr.org/global-conflict-tracker/conflict/war-yemen,3,3
39.8153,46.7519,Nagorno-Karabakh Conflict,https://www.cfr.org/global-conflict-tracker/conflict/nagorno-karabakh-conflict,2,3
17.978733095556,-2.4609375,Destabilization of Mali,https://www.cfr.org/global-conflict-tracker/conflict/destabilization-mali,2,3
6.8391696263428,19.3359375,Violence in the Central African Republic,https://www.cfr.org/global-conflict-tracker/conflict/violence-central-african-republic,2,3
26.688647,56.502372,Confrontation Between the United States and Iran,https://www.cfr.org/global-conflict-tracker/conflict/confrontation-between-united-states-and-iran,2,1
10.480594,-66.903603,Instability in Venezuela ,https://www.cfr.org/global-conflict-tracker/conflict/instability-venezuela,2,2
-1.9332268264771,22.641792297363,Violence in the Democratic Republic of Congo,https://www.cfr.org/global-conflict-tracker/conflict/violence-democratic-republic-congo,2,3
21.77990534253,96.328125,Rohingya Crisis in Myanmar,https://www.cfr.org/global-conflict-tracker/conflict/rohingya-crisis-myanmar,3,3
4.85165,31.58247,Civil War in South Sudan,https://www.cfr.org/global-conflict-tracker/conflict/civil-war-south-sudan,2,3
5.9657536710655,47.98828125,Al-Shabab in Somalia,https://www.cfr.org/global-conflict-tracker/conflict/al-shabab-somalia,2,3
8.980603,38.757761,Conflict in Ethiopia,https://www.cfr.org/global-conflict-tracker/conflict/conflict-ethiopia,3,3
-16.5,55.2,Tropical Storm( 93 km/h),https://www.gdacs.org/report.aspx?eventtype=TC&eventid=1000865,3,3
0.5716,30.2373,earthquake occurred in Uganda (4.9M),https://www.gdacs.org/report.aspx?eventtype=EQ&eventid=1310030,3,3
-4.2262,29.328,earthquake occurred in The Democratic Republic of Congo (4.7M),https://www.gdacs.org/report.aspx?eventtype=EQ&eventid=1310025,3,3
24.0275,125.417,earthquake occurred in Japan (4.5M),https://www.gdacs.org/report.aspx?eventtype=EQ&eventid=1310023,3,3
11.8863,144.296,earthquake occurred in Guam (4.6M),https://www.gdacs.org/report.aspx?eventtype=EQ&eventid=1310018,3,3
19.134,-70.769,Drought alert level is Green.,https://www.gdacs.org/report.aspx?eventtype=DR&eventid=1015291,3,3
-18.132,12.867,Drought alert level is Green.,https://www.gdacs.org/report.aspx?eventtype=DR&eventid=1015356,3,3
38.8,-7.2,Drought alert level is Orange.,https://www.gdacs.org/report.aspx?eventtype=DR&eventid=1015249,2,2
32.9,-100.303,Drought alert level is Green.,https://www.gdacs.org/report.aspx?eventtype=DR&eventid=1015088,3,3
-9.754,32.848,Drought alert level is Orange.,https://www.gdacs.org/report.aspx?eventtype=DR&eventid=1015281,2,2
35.093,41.313,Drought alert level is Green.,https://www.gdacs.org/report.aspx?eventtype=DR&eventid=1015257,3,3
16.01,-87.57,Drought alert level is Green.,https://www.gdacs.org/report.aspx?eventtype=DR&eventid=1015187,3,3
-38.509,-72.689,Drought alert level is Green.,https://www.gdacs.org/report.aspx?eventtype=DR&eventid=1014958,3,3
5.249,39.249,Drought alert level is Orange.,https://www.gdacs.org/report.aspx?eventtype=DR&eventid=1014742,2,2
44.426,54.55,Drought alert level is Green.,https://www.gdacs.org/report.aspx?eventtype=DR&eventid=1014473,3,3
-21.747,44.892,Drought alert level is Red.,https://www.gdacs.org/report.aspx?eventtype=DR&eventid=1014495,1,1
-26.739,-55.914,Drought alert level is Orange.,https://www.gdacs.org/report.aspx?eventtype=DR&eventid=1013868,2,2
33.372,-4.146,Drought alert level is Orange.,https://www.gdacs.org/report.aspx?eventtype=DR&eventid=1014695,2,2
54.8945,-156.9431,earthquake occurred in United States (4.5M),https://www.gdacs.org/report.aspx?eventtype=EQ&eventid=1310032,3,3
11.8066,144.3755,earthquake occurred in Guam (4.7M),https://www.gdacs.org/report.aspx?eventtype=EQ&eventid=1309988,3,3
11.7747,144.1851,earthquake occurred in Guam (4.8M),https://www.gdacs.org/report.aspx?eventtype=EQ&eventid=1309989,3,3
11.742,144.4867,earthquake occurred in Guam (5.7M),https://www.gdacs.org/report.aspx?eventtype=EQ&eventid=1309981,3,3
11.7882,144.3012,earthquake occurred in Guam (5.7M),https://www.gdacs.org/report.aspx?eventtype=EQ&eventid=1309977,3,3
30.158,131.032,earthquake occurred in Japan (4.5M),https://www.gdacs.org/report.aspx?eventtype=EQ&eventid=1309975,3,3
41.1595,44.001,earthquake occurred in Armenia (5.4M),https://www.gdacs.org/report.aspx?eventtype=EQ&eventid=1309964,3,3
-14.4795,-177.7144,earthquake occurred in Wallis and Futuna (4.6M),https://www.gdacs.org/report.aspx?eventtype=EQ&eventid=1309985,3,3
-18.4916,-175.0596,earthquake occurred in Tonga (4.8M),https://www.gdacs.org/report.aspx?eventtype=EQ&eventid=1309956,3,3
0.5659,30.2464,earthquake occurred in Uganda (4.8M),https://www.gdacs.org/report.aspx?eventtype=EQ&eventid=1309958,3,3
7.2201,94.2732,earthquake occurred in India (4.5M),https://www.gdacs.org/report.aspx?eventtype=EQ&eventid=1309974,3,3
-21.0175,173.5579,earthquake occurred in Vanuatu (5.4M),https://www.gdacs.org/report.aspx?eventtype=EQ&eventid=1309945,3,3
-44.084,168.7354,earthquake occurred in New Zealand (4.5M),https://www.gdacs.org/report.aspx?eventtype=EQ&eventid=1309941,3,3
